[{"name":"Ağrı Merkez","lat":"39.7189","lng":"43.0497"},{"name":"Diyadin","lat":"39.5401","lng":"43.6773"},{"name":"Doğubayazıt","lat":"39.5471","lng":"44.0688"},{"name":"Eleşkirt","lat":"39.8009","lng":"42.6775"},{"name":"Hamur","lat":"39.6088","lng":"42.9864"},{"name":"Patnos","lat":"39.2336","lng":"42.8633"},{"name":"Taşlıçay","lat":"39.6361","lng":"43.3810"},{"name":"Tutak","lat":"39.5422","lng":"42.7718"}]