[{"name":"Ardahan Merkez","lat":"41.1130","lng":"42.7023"},{"name":"Çıldır","lat":"41.1269","lng":"43.1351"},{"name":"Damal","lat":"41.3396","lng":"42.8395"},{"name":"Göle","lat":"40.7934","lng":"42.6095"},{"name":"Hanak","lat":"41.2334","lng":"42.8478"},{"name":"Posof","lat":"41.5096","lng":"42.7278"}]