[{"name":"Bozdoğan","lat":"37.6729","lng":"28.3102"},{"name":"Buharkent","lat":"37.9639","lng":"28.7430"},{"name":"Çine","lat":"37.6141","lng":"28.0611"},{"name":"Didim","lat":"37.3761","lng":"27.2647"},{"name":"Efeler","lat":"37.8429","lng":"27.8282"},{"name":"Germencik","lat":"37.8726","lng":"27.6011"},{"name":"İncirliova","lat":"37.8538","lng":"27.7234"},{"name":"Karacasu","lat":"37.7291","lng":"28.6072"},{"name":"Karpuzlu","lat":"37.5604","lng":"27.8358"},{"name":"Koçarlı","lat":"37.7620","lng":"27.7045"},{"name":"Köşk","lat":"37.8537","lng":"28.0521"},{"name":"Kuşadası","lat":"37.8579","lng":"27.2610"},{"name":"Kuyucak","lat":"37.9139","lng":"28.4598"},{"name":"Nazilli","lat":"37.9098","lng":"28.3243"},{"name":"Söke","lat":"37.7520","lng":"27.4057"},{"name":"Sultanhisar","lat":"37.8897","lng":"28.1545"},{"name":"Yenipazar","lat":"37.8234","lng":"28.1957"}]