[{"name":"Burdur Merkez","lat":"37.7182","lng":"30.2813"},{"name":"Ağlasun","lat":"37.6494","lng":"30.5340"},{"name":"Altınyayla","lat":"36.9976","lng":"29.5446"},{"name":"Bucak","lat":"37.4565","lng":"30.5898"},{"name":"Çavdır","lat":"37.1551","lng":"29.6898"},{"name":"Çeltikçi","lat":"37.5338","lng":"30.4827"},{"name":"Gölhisar","lat":"37.1408","lng":"29.5075"},{"name":"Karamanlı","lat":"37.3729","lng":"29.8239"},{"name":"Kemer","lat":"37.3533","lng":"30.0612"},{"name":"Tefenni","lat":"37.3095","lng":"29.7747"},{"name":"Yeşilova","lat":"37.5069","lng":"29.7529"}]