[{"name":"Büyükorhan","lat":"39.7729","lng":"28.8845"},{"name":"Gemlik","lat":"40.4318","lng":"29.1554"},{"name":"Gürsu","lat":"40.2179","lng":"29.1937"},{"name":"Harmancık","lat":"39.6778","lng":"29.1563"},{"name":"İnegöl","lat":"40.0801","lng":"29.5097"},{"name":"İznik","lat":"40.4295","lng":"29.7197"},{"name":"Karacabey","lat":"40.2160","lng":"28.3590"},{"name":"Keles","lat":"39.9129","lng":"29.2359"},{"name":"Kestel","lat":"40.2009","lng":"29.2131"},{"name":"Mudanya","lat":"40.3770","lng":"28.8832"},{"name":"Mustafakemalpaşa","lat":"40.0394","lng":"28.4052"},{"name":"Nilüfer","lat":"40.2861","lng":"28.9412"},{"name":"Orhaneli","lat":"39.9038","lng":"28.9907"},{"name":"Orhangazi","lat":"40.4901","lng":"29.3088"},{"name":"Osmangazi","lat":"40.1965","lng":"29.0559"},{"name":"Yenişehir","lat":"40.2642","lng":"29.6507"},{"name":"Yıldırım","lat":"40.1895","lng":"29.0857"}]