[{"name":"Acıpayam","lat":"37.4279","lng":"29.3510"},{"name":"Babadağ","lat":"37.8102","lng":"28.8589"},{"name":"Baklan","lat":"37.9767","lng":"29.6069"},{"name":"Bekilli","lat":"38.2302","lng":"29.4188"},{"name":"Beyağaç","lat":"37.2360","lng":"28.8975"},{"name":"Bozkurt","lat":"37.8210","lng":"29.6064"},{"name":"Buldan","lat":"38.0442","lng":"28.8346"},{"name":"Çal","lat":"38.0830","lng":"29.3983"},{"name":"Çameli","lat":"37.0768","lng":"29.3515"},{"name":"Çardak","lat":"37.8252","lng":"29.6696"},{"name":"Çivril","lat":"38.3021","lng":"29.7403"},{"name":"Güney","lat":"38.1555","lng":"29.0647"},{"name":"Honaz","lat":"37.7570","lng":"29.2643"},{"name":"Kale","lat":"37.4521","lng":"28.8511"},{"name":"Merkezefendi","lat":"37.7737","lng":"29.0605"},{"name":"Pamukkale","lat":"37.9186","lng":"29.1103"},{"name":"Sarayköy","lat":"37.9245","lng":"28.9231"},{"name":"Serinhisar","lat":"37.5880","lng":"29.2660"},{"name":"Tavas","lat":"37.5731","lng":"29.0713"}]