[{"name":"Bağlar","lat":"37.9250","lng":"40.2110"},{"name":"Bismil","lat":"37.8500","lng":"40.6691"},{"name":"Çermik","lat":"38.1355","lng":"39.4561"},{"name":"Çınar","lat":"37.7241","lng":"40.4135"},{"name":"Çüngüş","lat":"38.2128","lng":"39.2891"},{"name":"Dicle","lat":"38.3733","lng":"40.0756"},{"name":"Eğil","lat":"38.2579","lng":"40.0812"},{"name":"Ergani","lat":"38.2680","lng":"39.7617"},{"name":"Hani","lat":"38.4112","lng":"40.3962"},{"name":"Hazro","lat":"38.1500","lng":"40.4980"},{"name":"Kayapınar","lat":"37.9323","lng":"40.1806"},{"name":"Kocaköy","lat":"38.2917","lng":"40.5052"},{"name":"Kulp","lat":"38.5007","lng":"41.0107"},{"name":"Lice","lat":"38.4536","lng":"40.6518"},{"name":"Silvan","lat":"38.1420","lng":"41.0109"},{"name":"Sur","lat":"37.9145","lng":"40.2317"},{"name":"Yenişehir","lat":"37.9250","lng":"40.2110"}]