[{"name":"Elazığ Merkez","lat":"38.6748","lng":"39.2225"},{"name":"Ağın","lat":"38.9430","lng":"38.7156"},{"name":"Alacakaya","lat":"38.4667","lng":"39.8620"},{"name":"Arıcak","lat":"38.5635","lng":"40.1346"},{"name":"Baskil","lat":"38.5678","lng":"38.8237"},{"name":"Karakoçan","lat":"38.9558","lng":"40.0359"},{"name":"Keban","lat":"38.7939","lng":"38.7445"},{"name":"Kovancılar","lat":"38.7179","lng":"39.8666"},{"name":"Maden","lat":"38.3917","lng":"39.6676"},{"name":"Palu","lat":"38.6924","lng":"39.9325"},{"name":"Sivrice","lat":"38.4470","lng":"39.3093"}]