[{"name":"Kars Merkez","lat":"40.6013","lng":"43.0975"},{"name":"Akyaka","lat":"40.7426","lng":"43.6274"},{"name":"Arpaçay","lat":"40.8467","lng":"43.3321"},{"name":"Digor","lat":"40.3751","lng":"43.4142"},{"name":"Kağızman","lat":"40.1406","lng":"43.1191"},{"name":"Sarıkamış","lat":"40.3334","lng":"42.5905"},{"name":"Selim","lat":"40.4641","lng":"42.7906"},{"name":"Susuz","lat":"40.7796","lng":"43.1298"}]