[{"name":"Kütahya Merkez","lat":"39.4200","lng":"29.9857"},{"name":"Altıntaş","lat":"39.0580","lng":"30.1086"},{"name":"Aslanapa","lat":"39.2149","lng":"29.8703"},{"name":"Çavdarhisar","lat":"39.1969","lng":"29.6172"},{"name":"Domaniç","lat":"39.8010","lng":"29.6127"},{"name":"Dumlupınar","lat":"38.8552","lng":"29.9762"},{"name":"Emet","lat":"39.3444","lng":"29.2579"},{"name":"Gediz","lat":"38.9929","lng":"29.4012"},{"name":"Hisarcık","lat":"39.2465","lng":"29.2359"},{"name":"Pazarlar","lat":"38.9953","lng":"29.1215"},{"name":"Simav","lat":"39.0896","lng":"28.9787"},{"name":"Şaphane","lat":"39.0249","lng":"29.2201"},{"name":"Tavşanlı","lat":"39.5470","lng":"29.4914"}]