[{"name":"Rize Merkez","lat":"41.0255","lng":"40.5177"},{"name":"Ardeşen","lat":"41.1918","lng":"40.9891"},{"name":"Çamlıhemşin","lat":"41.0470","lng":"41.0029"},{"name":"Çayeli","lat":"41.0902","lng":"40.7275"},{"name":"Derepazarı","lat":"41.0240","lng":"40.4218"},{"name":"Fındıklı","lat":"41.2707","lng":"41.1401"},{"name":"Güneysu","lat":"40.9782","lng":"40.6126"},{"name":"Hemşin","lat":"41.0482","lng":"40.8991"},{"name":"İkizdere","lat":"40.7752","lng":"40.5620"},{"name":"İyidere","lat":"41.0122","lng":"40.3606"},{"name":"Kalkandere","lat":"40.9253","lng":"40.4434"},{"name":"Pazar","lat":"41.1807","lng":"40.8868"}]