[{"name":"Alaçam","lat":"41.6050","lng":"35.5985"},{"name":"Asarcık","lat":"41.0370","lng":"36.2346"},{"name":"Atakum","lat":"41.3284","lng":"36.2848"},{"name":"Ayvacık","lat":"40.9896","lng":"36.6308"},{"name":"Bafra","lat":"41.5627","lng":"35.9059"},{"name":"Canik","lat":"41.2678","lng":"36.3600"},{"name":"Çarşamba","lat":"41.1995","lng":"36.7219"},{"name":"Havza","lat":"40.9683","lng":"35.6670"},{"name":"İlkadım","lat":"41.2944","lng":"36.3289"},{"name":"Kavak","lat":"41.0791","lng":"36.0424"},{"name":"Ladik","lat":"40.9120","lng":"35.8948"},{"name":"Ondokuzmayıs","lat":"41.4949","lng":"36.0813"},{"name":"Salıpazarı","lat":"41.0823","lng":"36.8253"},{"name":"Tekkeköy","lat":"41.2125","lng":"36.4589"},{"name":"Terme","lat":"41.2089","lng":"36.9718"},{"name":"Vezirköprü","lat":"41.1431","lng":"35.4606"},{"name":"Yakakent","lat":"41.6312","lng":"35.5305"}]