[{"name":"Tokat Merkez","lat":"40.3235","lng":"36.5522"},{"name":"Almus","lat":"40.3761","lng":"36.9035"},{"name":"Artova","lat":"40.1180","lng":"36.3014"},{"name":"Başçiftlik","lat":"40.5470","lng":"37.1682"},{"name":"Erbaa","lat":"40.6727","lng":"36.5712"},{"name":"Niksar","lat":"40.5902","lng":"36.9512"},{"name":"Pazar","lat":"40.2773","lng":"36.2847"},{"name":"Reşadiye","lat":"40.3924","lng":"37.3360"},{"name":"Sulusaray","lat":"39.9972","lng":"36.0845"},{"name":"Turhal","lat":"40.3862","lng":"36.0878"},{"name":"Yeşilyurt","lat":"40.0078","lng":"36.2210"},{"name":"Zile","lat":"40.3018","lng":"35.8867"}]